{
"type": "FeatureCollection",
"name": "Harta_Cismele",
"crs": { "type": "name", "properties": { "name": "urn:ogc:def:crs:OGC:1.3:CRS84" } },
"features": [
{ "type": "Feature", "properties": { "Name": "Cișmea Publică Parcul Carol Mausoleu", "description": null, "xcoord": 26.0953468, "ycoord": 44.4116525 }, "geometry": { "type": "Point", "coordinates": [ 26.0953468, 44.4116525 ] } },
{ "type": "Feature", "properties": { "Name": "Cișmea Intrare Betty Ice", "description": "🐕 friendly", "xcoord": 26.0978546, "ycoord": 44.4149906 }, "geometry": { "type": "Point", "coordinates": [ 26.0978546, 44.4149906 ] } },
{ "type": "Feature", "properties": { "Name": "Țâșnitoare Publică Strada Nicopole", "description": null, "xcoord": 26.0999206, "ycoord": 44.4108387 }, "geometry": { "type": "Point", "coordinates": [ 26.0999206, 44.4108387 ] } },
{ "type": "Feature", "properties": { "Name": "Cișmea Publică - Strada Colonel Ștefan Stoika", "description": null, "xcoord": 26.0646812, "ycoord": 44.4578334 }, "geometry": { "type": "Point", "coordinates": [ 26.0646812, 44.4578334 ] } },
{ "type": "Feature", "properties": { "Name": "Cișmea Publică - Parcul Regina Maria", "description": null, "xcoord": 26.0657219, "ycoord": 44.4574735 }, "geometry": { "type": "Point", "coordinates": [ 26.0657219, 44.4574735 ] } },
{ "type": "Feature", "properties": { "Name": "Cișmea publica Valea Oltului", "description": null, "xcoord": 26.0125008, "ycoord": 44.4235828 }, "geometry": { "type": "Point", "coordinates": [ 26.0125008, 44.4235828 ] } },
{ "type": "Feature", "properties": { "Name": "Cișmea publică Intrarea Sectorului", "description": null, "xcoord": 26.2272589, "ycoord": 44.4608396 }, "geometry": { "type": "Point", "coordinates": [ 26.2272589, 44.4608396 ] } },
{ "type": "Feature", "properties": { "Name": "Cișmea Parcul Național", "description": null, "xcoord": 26.1431018, "ycoord": 44.4340234 }, "geometry": { "type": "Point", "coordinates": [ 26.1431018, 44.4340234 ] } },
{ "type": "Feature", "properties": { "Name": "Cismea Obor", "description": "Atenție, verificați înainte sa beți! În urma cu apx 3 sapt era cu mult clor. ", "xcoord": 26.1270264, "ycoord": 44.448947 }, "geometry": { "type": "Point", "coordinates": [ 26.1270264, 44.448947 ] } },
{ "type": "Feature", "properties": { "Name": "Cișmea publică ", "description": null, "xcoord": 26.0904133, "ycoord": 44.4470922 }, "geometry": { "type": "Point", "coordinates": [ 26.0904133, 44.4470922 ] } },
{ "type": "Feature", "properties": { "Name": "Cismea publica Parc Drumul Taberei 1", "description": "<img src=\"https:\/\/mymaps.usercontent.google.com\/hostedimage\/m\/*\/3AL_Y2X5nB0PuvKwRvuLryM5D-DHSt368DqHbXu3iCtvXEztUdVU-uv8XNgO0pZwynelNDHa3xSRbiKMUDU-BIEu2wMOJRdzMqDgbaYgs60fiu-UJfoVPQyVicxx2DDo_EquaTWhiywW4qKYoMmHxQ23oLcYCUHtoRLklKgWDLZ7s5XTXp_6EHwNUpp2nj1XItw3KAWbFnfWdQkfAngsdDY1xFUPHwKugZlnq6A3wuWM4scF31FwxKd2eafNc7bk?authuser=0&fife=s16383\" height=\"200\" width=\"auto\" \/><br><br>Foto 10.10.2024", "xcoord": 26.0327238, "ycoord": 44.4213152 }, "geometry": { "type": "Point", "coordinates": [ 26.0327238, 44.4213152 ] } },
{ "type": "Feature", "properties": { "Name": "Cismea Publica Vatra Luminoasa", "description": null, "xcoord": 26.1396593, "ycoord": 44.4384446 }, "geometry": { "type": "Point", "coordinates": [ 26.1396593, 44.4384446 ] } },
{ "type": "Feature", "properties": { "Name": "Cismea Publica ASE\/Dorobanti", "description": null, "xcoord": 26.0993162, "ycoord": 44.447385 }, "geometry": { "type": "Point", "coordinates": [ 26.0993162, 44.447385 ] } },
{ "type": "Feature", "properties": { "Name": "Cismea Publica Arcul de Triumf", "description": null, "xcoord": 26.0774073, "ycoord": 44.4680999 }, "geometry": { "type": "Point", "coordinates": [ 26.0774073, 44.4680999 ] } },
{ "type": "Feature", "properties": { "Name": "Cismea Publica Parc Icoanei", "description": null, "xcoord": 26.1037111, "ycoord": 44.4440386 }, "geometry": { "type": "Point", "coordinates": [ 26.1037111, 44.4440386 ] } },
{ "type": "Feature", "properties": { "Name": "Point 15", "description": "Cișmea publica", "xcoord": 24.4967218, "ycoord": 47.128337 }, "geometry": { "type": "Point", "coordinates": [ 24.4967218, 47.128337 ] } },
{ "type": "Feature", "properties": { "Name": "Cișmea de inox, cu buton", "description": null, "xcoord": 26.0786203, "ycoord": 44.4355895 }, "geometry": { "type": "Point", "coordinates": [ 26.0786203, 44.4355895 ] } },
{ "type": "Feature", "properties": { "Name": "Cișmea publica str mașina de pâine ", "description": null, "xcoord": 26.1271452, "ycoord": 44.4561579 }, "geometry": { "type": "Point", "coordinates": [ 26.1271452, 44.4561579 ] } },
{ "type": "Feature", "properties": { "Name": "Cișmea Marin Preda", "description": null, "xcoord": 26.0424803, "ycoord": 44.4610395 }, "geometry": { "type": "Point", "coordinates": [ 26.0424803, 44.4610395 ] } },
{ "type": "Feature", "properties": { "Name": "Punct 19", "description": null, "xcoord": 26.0425062, "ycoord": 44.4609333 }, "geometry": { "type": "Point", "coordinates": [ 26.0425062, 44.4609333 ] } },
{ "type": "Feature", "properties": { "Name": "🐕Cișmea, Cafeneaua Actorilor", "description": "<img src=\"https:\/\/mymaps.usercontent.google.com\/hostedimage\/m\/*\/3AL_Y2X5Nm2-ZIbUbFvzukTbk-rCQUsfpnE4IZn9oLIeQeF-S6b_G2hiYugk-8TBxQP8vAdKcz6H2QIhRdqqkTC6ogMvGfVJ91It-2GVRw247kAV7iWehsXdNWgLZ-7gKWGM_icNPLf1rmUzPINs-9oXOzmiBfdF2_DAi2AghVkYtK_TJZEK4HUS40MlC8cPjj5P2QpceQXJstAJVgG1STlfcWdqtP0mQa3Ri2p1ralXWxMej_QGvzWE7vJzIkPw?authuser=0&fife=s16383\" height=\"200\" width=\"auto\" \/><br><br>🐕 pet friendly", "xcoord": 26.1104898, "ycoord": 44.4088855 }, "geometry": { "type": "Point", "coordinates": [ 26.1104898, 44.4088855 ] } },
{ "type": "Feature", "properties": { "Name": "Cismeaua - Fantana Maria Tanase", "description": "Cismea populara de unde multa lume vine si ia apa. ", "xcoord": 26.1118394, "ycoord": 44.4021544 }, "geometry": { "type": "Point", "coordinates": [ 26.1118394, 44.4021544 ] } },
{ "type": "Feature", "properties": { "Name": "Point 23", "description": null, "xcoord": 26.0897607, "ycoord": 44.437084 }, "geometry": { "type": "Point", "coordinates": [ 26.0897607, 44.437084 ] } },
{ "type": "Feature", "properties": { "Name": "Magazin Zero Waste", "description": null, "xcoord": 26.082184, "ycoord": 44.4469266 }, "geometry": { "type": "Point", "coordinates": [ 26.082184, 44.4469266 ] } },
{ "type": "Feature", "properties": { "Name": "Cismea Publica Aleea Belvedere", "description": "Calitate buna", "xcoord": 26.1481912, "ycoord": 44.4346924 }, "geometry": { "type": "Point", "coordinates": [ 26.1481912, 44.4346924 ] } },
{ "type": "Feature", "properties": { "Name": "Uverturii 85", "description": null, "xcoord": 26.0271499, "ycoord": 44.4398627 }, "geometry": { "type": "Point", "coordinates": [ 26.0271499, 44.4398627 ] } },
{ "type": "Feature", "properties": { "Name": "Drumul Taberei 68", "description": null, "xcoord": 26.0252274, "ycoord": 44.4232637 }, "geometry": { "type": "Point", "coordinates": [ 26.0252274, 44.4232637 ] } },
{ "type": "Feature", "properties": { "Name": "Dr. Lister 1", "description": null, "xcoord": 26.0778133, "ycoord": 44.4340222 }, "geometry": { "type": "Point", "coordinates": [ 26.0778133, 44.4340222 ] } },
{ "type": "Feature", "properties": { "Name": "Punct 30", "description": null, "xcoord": 26.0437042, "ycoord": 44.4269982 }, "geometry": { "type": "Point", "coordinates": [ 26.0437042, 44.4269982 ] } },
{ "type": "Feature", "properties": { "Name": "Point 30", "description": "Cișmea publica stație STB Șos Fundeni", "xcoord": 26.1558078, "ycoord": 44.4631777 }, "geometry": { "type": "Point", "coordinates": [ 26.1558078, 44.4631777 ] } },
{ "type": "Feature", "properties": { "Name": "Cișmea Liceul Jean Monnet", "description": null, "xcoord": 26.0929234, "ycoord": 44.4659841 }, "geometry": { "type": "Point", "coordinates": [ 26.0929234, 44.4659841 ] } },
{ "type": "Feature", "properties": { "Name": "Cișmea Parc Floreasca", "description": null, "xcoord": 26.0989797, "ycoord": 44.4645383 }, "geometry": { "type": "Point", "coordinates": [ 26.0989797, 44.4645383 ] } },
{ "type": "Feature", "properties": { "Name": "Cișmea Parc Cinema Floreasca", "description": null, "xcoord": 26.1046199, "ycoord": 44.4632886 }, "geometry": { "type": "Point", "coordinates": [ 26.1046199, 44.4632886 ] } },
{ "type": "Feature", "properties": { "Name": "Cișmea Parcul Circului", "description": null, "xcoord": 26.1132655, "ycoord": 44.4568967 }, "geometry": { "type": "Point", "coordinates": [ 26.1132655, 44.4568967 ] } },
{ "type": "Feature", "properties": { "Name": "Cișmea Spital Floreasca", "description": null, "xcoord": 26.1007164, "ycoord": 44.4539059 }, "geometry": { "type": "Point", "coordinates": [ 26.1007164, 44.4539059 ] } },
{ "type": "Feature", "properties": { "Name": "Biserica Bazilescu", "description": null, "xcoord": 26.0360671, "ycoord": 44.489235 }, "geometry": { "type": "Point", "coordinates": [ 26.0360671, 44.489235 ] } },
{ "type": "Feature", "properties": { "Name": "Parcul Bazilescu", "description": null, "xcoord": 26.034471, "ycoord": 44.4883114 }, "geometry": { "type": "Point", "coordinates": [ 26.034471, 44.4883114 ] } },
{ "type": "Feature", "properties": { "Name": "Parc Crîng Alee Intrare", "description": null, "xcoord": 26.8019626, "ycoord": 45.147202 }, "geometry": { "type": "Point", "coordinates": [ 26.8019626, 45.147202 ] } },
{ "type": "Feature", "properties": { "Name": "Cișmea Publica", "description": null, "xcoord": 23.7093501, "ycoord": 47.0562201 }, "geometry": { "type": "Point", "coordinates": [ 23.7093501, 47.0562201 ] } },
{ "type": "Feature", "properties": { "Name": "Cișmea Publica", "description": null, "xcoord": 24.146626, "ycoord": 45.7939315 }, "geometry": { "type": "Point", "coordinates": [ 24.146626, 45.7939315 ] } },
{ "type": "Feature", "properties": { "Name": "Cișmea Publica", "description": null, "xcoord": 24.1287382, "ycoord": 45.7666027 }, "geometry": { "type": "Point", "coordinates": [ 24.1287382, 45.7666027 ] } },
{ "type": "Feature", "properties": { "Name": "Cișmea Publica", "description": null, "xcoord": 24.174047, "ycoord": 45.7859598 }, "geometry": { "type": "Point", "coordinates": [ 24.174047, 45.7859598 ] } },
{ "type": "Feature", "properties": { "Name": "Cișmea Publica", "description": null, "xcoord": 24.1153751, "ycoord": 45.7550895 }, "geometry": { "type": "Point", "coordinates": [ 24.1153751, 45.7550895 ] } },
{ "type": "Feature", "properties": { "Name": "Cișmea Publica", "description": null, "xcoord": 24.1134003, "ycoord": 45.7558828 }, "geometry": { "type": "Point", "coordinates": [ 24.1134003, 45.7558828 ] } },
{ "type": "Feature", "properties": { "Name": "Cișmea Publica", "description": null, "xcoord": 24.1519362, "ycoord": 45.7967406 }, "geometry": { "type": "Point", "coordinates": [ 24.1519362, 45.7967406 ] } },
{ "type": "Feature", "properties": { "Name": "Cișmea Publica", "description": null, "xcoord": 24.1576305, "ycoord": 45.7966169 }, "geometry": { "type": "Point", "coordinates": [ 24.1576305, 45.7966169 ] } },
{ "type": "Feature", "properties": { "Name": "Cișmea Publica", "description": null, "xcoord": 24.1917166, "ycoord": 45.8783937 }, "geometry": { "type": "Point", "coordinates": [ 24.1917166, 45.8783937 ] } },
{ "type": "Feature", "properties": { "Name": "Cișmea Publica", "description": null, "xcoord": 24.1398435, "ycoord": 45.7826064 }, "geometry": { "type": "Point", "coordinates": [ 24.1398435, 45.7826064 ] } },
{ "type": "Feature", "properties": { "Name": "Cișmea Publica", "description": null, "xcoord": 24.1424907, "ycoord": 45.7835906 }, "geometry": { "type": "Point", "coordinates": [ 24.1424907, 45.7835906 ] } },
{ "type": "Feature", "properties": { "Name": "Point 51", "description": "<img src=\"https:\/\/mymaps.usercontent.google.com\/hostedimage\/m\/*\/3AL_Y2X4T1hFfZfPtc8VUgyixsSF--SLkaJCqF-IL29ileBDGBdbolMMka_zyGL_vGH-cmDm-pAt1gQp9vOl0zPn_CDa23g0WF3LGhU4vjbogW8N69VorCxPnDErFknCLz1pgLlpklqHmSQHS9C9DKXhumMHHgqyHiga-IZ4VlEfPQ87QqQZEKuKm8IiQXto2ikyVVPGy9Jk7eF8F0HM961WwvlFevr5xWKjFJpQhOzsmNdLp_IDoKc72taRS6zk?authuser=0&fife=s16383\" height=\"200\" width=\"auto\" \/><br><br>", "xcoord": 26.0901587, "ycoord": 44.442245 }, "geometry": { "type": "Point", "coordinates": [ 26.0901587, 44.442245 ] } },
{ "type": "Feature", "properties": { "Name": "Str. Doctor Joseph Lister 32", "description": null, "xcoord": 26.075533, "ycoord": 44.4310053 }, "geometry": { "type": "Point", "coordinates": [ 26.075533, 44.4310053 ] } },
{ "type": "Feature", "properties": { "Name": "Point 53", "description": null, "xcoord": 28.606494, "ycoord": 43.9395095 }, "geometry": { "type": "Point", "coordinates": [ 28.606494, 43.9395095 ] } },
{ "type": "Feature", "properties": { "Name": "Point 54", "description": null, "xcoord": 26.8173854, "ycoord": 42.1830992 }, "geometry": { "type": "Point", "coordinates": [ 26.8173854, 42.1830992 ] } },
{ "type": "Feature", "properties": { "Name": "Bd. Pache Protopopescu 121", "description": null, "xcoord": 26.122639, "ycoord": 44.439304 }, "geometry": { "type": "Point", "coordinates": [ 26.122639, 44.439304 ] } },
{ "type": "Feature", "properties": { "Name": "Point 56", "description": null, "xcoord": 26.0971598, "ycoord": 44.4467801 }, "geometry": { "type": "Point", "coordinates": [ 26.0971598, 44.4467801 ] } },
{ "type": "Feature", "properties": { "Name": "Iuliu Maniu 102", "description": null, "xcoord": 26.0248994, "ycoord": 44.4343165 }, "geometry": { "type": "Point", "coordinates": [ 26.0248994, 44.4343165 ] } },
{ "type": "Feature", "properties": { "Name": "Cismea Publica IOR", "description": null, "xcoord": 26.1533562, "ycoord": 44.4191665 }, "geometry": { "type": "Point", "coordinates": [ 26.1533562, 44.4191665 ] } },
{ "type": "Feature", "properties": { "Name": "Cismea Publica Icoanei", "description": null, "xcoord": 26.103282, "ycoord": 44.443053 }, "geometry": { "type": "Point", "coordinates": [ 26.103282, 44.443053 ] } },
{ "type": "Feature", "properties": { "Name": "Țâșnitoare La Mita Biciclista", "description": "<img src=\"https:\/\/mymaps.usercontent.google.com\/hostedimage\/m\/*\/3AL_Y2X6NXPkFMxoO2yv8LTsT2sMIWOpWxa4WXoEfmPxxqc1yOpmBejwDJtYBenLt9rBjKicHyf_hpeu4E2VP2RaWoYg5r4AX_HmzM3oIE6kBrbRSqblZwybz0mFBZ26og2HjVSmNk3C-VCWbhlD-u7p-WjJ8_7aXShGjNd5vhKyz0kW0pbgVRAWiE0_hBzs5cTJzdmm1TzQ3mT0aJNH6ztXbcV14MdcUFScgCehboifbd6QTGOot4MQAwPMLLS4?authuser=0&fife=s16383\" height=\"200\" width=\"auto\" \/><br><br>", "xcoord": 26.0940866, "ycoord": 44.4447838 }, "geometry": { "type": "Point", "coordinates": [ 26.0940866, 44.4447838 ] } },
{ "type": "Feature", "properties": { "Name": "Tâșnitoare Cartier Rovine, blocul J18", "description": "https:\/\/www.apaoltenia.ro\/index.php\/informatii-utile\/fantani-si-tasnitori-publice\/", "xcoord": 23.8117064, "ycoord": 44.3252752 }, "geometry": { "type": "Point", "coordinates": [ 23.8117064, 44.3252752 ] } },
{ "type": "Feature", "properties": { "Name": "Cismea Publica Borcanul cu Miere", "description": null, "xcoord": 23.8223363, "ycoord": 44.3230921 }, "geometry": { "type": "Point", "coordinates": [ 23.8223363, 44.3230921 ] } },
{ "type": "Feature", "properties": { "Name": "Tâșnitoare English Parc, str. A.I. Cuza;", "description": null, "xcoord": 23.7965087, "ycoord": 44.3178648 }, "geometry": { "type": "Point", "coordinates": [ 23.7965087, 44.3178648 ] } },
{ "type": "Feature", "properties": { "Name": "Tâșnitoare Liceul Elena Cuza;", "description": null, "xcoord": 23.7929835, "ycoord": 44.3194826 }, "geometry": { "type": "Point", "coordinates": [ 23.7929835, 44.3194826 ] } },
{ "type": "Feature", "properties": { "Name": "Țâșnitoare Complex Baba Novac, cartier Brazda lui Novac;", "description": null, "xcoord": 23.8047229, "ycoord": 44.3297997 }, "geometry": { "type": "Point", "coordinates": [ 23.8047229, 44.3297997 ] } },
{ "type": "Feature", "properties": { "Name": "Țâșnitoare Clubul Electroputere, str. Calea București;", "description": null, "xcoord": 23.8214926, "ycoord": 44.3156862 }, "geometry": { "type": "Point", "coordinates": [ 23.8214926, 44.3156862 ] } },
{ "type": "Feature", "properties": { "Name": "Țâșnitoare Blocul P2, str. Calea București", "description": null, "xcoord": 24.6410929, "ycoord": 44.2646263 }, "geometry": { "type": "Point", "coordinates": [ 24.6410929, 44.2646263 ] } },
{ "type": "Feature", "properties": { "Name": "Cișmea", "description": null, "xcoord": 26.0894523, "ycoord": 44.4369195 }, "geometry": { "type": "Point", "coordinates": [ 26.0894523, 44.4369195 ] } },
{ "type": "Feature", "properties": { "Name": "Țâșnitoare Ioanid", "description": null, "xcoord": 26.1053951, "ycoord": 44.4455903 }, "geometry": { "type": "Point", "coordinates": [ 26.1053951, 44.4455903 ] } },
{ "type": "Feature", "properties": { "Name": "Țâșnitoare Schitul Dârvari", "description": null, "xcoord": 26.1073848, "ycoord": 44.4428452 }, "geometry": { "type": "Point", "coordinates": [ 26.1073848, 44.4428452 ] } },
{ "type": "Feature", "properties": { "Name": "Cișmea parc\n", "description": null, "xcoord": 25.5942698, "ycoord": 45.6458206 }, "geometry": { "type": "Point", "coordinates": [ 25.5942698, 45.6458206 ] } },
{ "type": "Feature", "properties": { "Name": "cișmea", "description": null, "xcoord": 25.5961151, "ycoord": 45.6458806 }, "geometry": { "type": "Point", "coordinates": [ 25.5961151, 45.6458806 ] } },
{ "type": "Feature", "properties": { "Name": "Tasnitoare Parc Izvorul Rece", "description": null, "xcoord": 26.1163275, "ycoord": 44.4380925 }, "geometry": { "type": "Point", "coordinates": [ 26.1163275, 44.4380925 ] } },
{ "type": "Feature", "properties": { "Name": "Point 74", "description": null, "xcoord": 26.1136668, "ycoord": 44.4355552 }, "geometry": { "type": "Point", "coordinates": [ 26.1136668, 44.4355552 ] } },
{ "type": "Feature", "properties": { "Name": "Punct 75", "description": null, "xcoord": 26.0818502, "ycoord": 44.4573681 }, "geometry": { "type": "Point", "coordinates": [ 26.0818502, 44.4573681 ] } },
{ "type": "Feature", "properties": { "Name": "Punct 76", "description": null, "xcoord": 26.086009, "ycoord": 44.4599713 }, "geometry": { "type": "Point", "coordinates": [ 26.086009, 44.4599713 ] } },
{ "type": "Feature", "properties": { "Name": "Punct 77", "description": "Cu adăpare caini", "xcoord": 26.084505, "ycoord": 44.4583425 }, "geometry": { "type": "Point", "coordinates": [ 26.084505, 44.4583425 ] } },
{ "type": "Feature", "properties": { "Name": "Punct 78", "description": null, "xcoord": 26.0843551, "ycoord": 44.4558973 }, "geometry": { "type": "Point", "coordinates": [ 26.0843551, 44.4558973 ] } },
{ "type": "Feature", "properties": { "Name": "Cișmea publica Kiseleff ", "description": null, "xcoord": 26.082283, "ycoord": 44.4587759 }, "geometry": { "type": "Point", "coordinates": [ 26.082283, 44.4587759 ] } },
{ "type": "Feature", "properties": { "Name": "Punct 80", "description": "Cu adăpare caini ", "xcoord": 26.0830289, "ycoord": 44.4560522 }, "geometry": { "type": "Point", "coordinates": [ 26.0830289, 44.4560522 ] } },
{ "type": "Feature", "properties": { "Name": "Punct 81", "description": null, "xcoord": 26.0814093, "ycoord": 44.4582236 }, "geometry": { "type": "Point", "coordinates": [ 26.0814093, 44.4582236 ] } },
{ "type": "Feature", "properties": { "Name": "Țâșnitoare Eroii Revoluției", "description": "<img src=\"https:\/\/mymaps.usercontent.google.com\/hostedimage\/m\/*\/3AL_Y2X6yxIXkVQgTB6JiPqKwO12UpD0jy2gST-0ry4CIBa8PT9_J6nXDLoBO8CIeK428Y53n0GImwC6GXm9lRXcliydVBdAkCdYDgqfcLfRxFUwWFOk4FnIestkQxuL4pM9EPsehRo78Kl4gn-a69KCXtvXyYjdlEtmBuRASk1GFfFEboukj71nftwQ3iqMfGAmcpyxLqan7RcF-Leu6kBb_b-Uw7eW_GwUPuI7pGcMGTQCZokW1UW98AGh4dXo?authuser=0&fife=s16383\" height=\"200\" width=\"auto\" \/><br><br>", "xcoord": 26.0966611, "ycoord": 44.4052234 }, "geometry": { "type": "Point", "coordinates": [ 26.0966611, 44.4052234 ] } },
{ "type": "Feature", "properties": { "Name": "Parcul Municipal Onești", "description": null, "xcoord": 26.7596025, "ycoord": 46.2527716 }, "geometry": { "type": "Point", "coordinates": [ 26.7596025, 46.2527716 ] } },
{ "type": "Feature", "properties": { "Name": "Cișmea", "description": "<img src=\"https:\/\/mymaps.usercontent.google.com\/hostedimage\/m\/*\/3AL_Y2X4r_jIaHH0AVMuzdwRecWkJthhoj4j1CLpRI7TjvIGUGE_jG_rTk5EIrHtVeAPRdcKPAGdzfZLi-6OVyr5CL4yerV2EYUynwtYpn7J0q3E3qS7Ia6dVErefUHLj_AdCfyM0jMC4kTOqWC8EvbmCk__6BvcssHdKztRCxw7F5s7-hPBOPhzD83mwwcPEoo_PjVaTZKBVv7KgSKnxfQhdqk5EU56WqIPTGNs_MerjKjdBO3GqqMpXPOHicrI?authuser=0&fife=s16383\" height=\"200\" width=\"auto\" \/><br><br>Foto 07.06.25", "xcoord": 26.0801051, "ycoord": 44.4724547 }, "geometry": { "type": "Point", "coordinates": [ 26.0801051, 44.4724547 ] } },
{ "type": "Feature", "properties": { "Name": "Point 84", "description": null, "xcoord": 26.0817559, "ycoord": 44.471846 }, "geometry": { "type": "Point", "coordinates": [ 26.0817559, 44.471846 ] } },
{ "type": "Feature", "properties": { "Name": "Țâșnitoare rond", "description": "<img src=\"https:\/\/mymaps.usercontent.google.com\/hostedimage\/m\/*\/3AL_Y2X7ha0l0zq0Jr6vRTZhlZQwU5nnKwXQv9H_O1pUsOL1S94x9QlKVz4AEjNw1A0uVITmA61SIQWWyy9Wgdb9k8xZhRTiSdHVer7yocdec9gj4PQEf4shHwcD5VdMA5EcfuD94C4lZheVRz6-Rz4ijFiI-qP856ewELglWb4CYWzEdZtU0qSerdUIl2FRegDHitejCSDGbUM2o3oOegHjZdEgZ6LmqM99Ou1xIGTrQKFvUA5ythervKg5unHI?authuser=0&fife=s16383\" height=\"200\" width=\"auto\" \/><br><br>", "xcoord": 26.0852038, "ycoord": 44.4663996 }, "geometry": { "type": "Point", "coordinates": [ 26.0852038, 44.4663996 ] } },
{ "type": "Feature", "properties": { "Name": "Point 86", "description": null, "xcoord": 26.0776527, "ycoord": 44.4707439 }, "geometry": { "type": "Point", "coordinates": [ 26.0776527, 44.4707439 ] } },
{ "type": "Feature", "properties": { "Name": "Cișmea", "description": null, "xcoord": 26.1049375, "ycoord": 44.4123694 }, "geometry": { "type": "Point", "coordinates": [ 26.1049375, 44.4123694 ] } },
{ "type": "Feature", "properties": { "Name": "Piata Unirii - Cinema Victoria\n", "description": "cișmea publică", "xcoord": 27.5790921, "ycoord": 47.1655954 }, "geometry": { "type": "Point", "coordinates": [ 27.5790921, 47.1655954 ] } },
{ "type": "Feature", "properties": { "Name": "Țâșnitoare Tineretului", "description": "<img src=\"https:\/\/mymaps.usercontent.google.com\/hostedimage\/m\/*\/3AL_Y2X6uOvf8GLVqDLR-Lj0CfQOinSEn2IADJh4crobVP8Nts1Ce0l6RadzsnwOsSIyQVfCOvr7p7fZZrKGRdp6Q-Xz66Ht_te74v8aIYGWgr9574Sp_Jepwkg5nqZOWC_ESn6tM3mFkYZt0W5KnqzHxLgA6QZgp-4e-JMRgcHhSkeEdJn3a_wuT9CGaguCfLJVFS4qAwUnK82QS-Mhs-WVsJhWWFk0QQn2i0-yFSgbky0Fewlb6MUZX5UaHPlk?authuser=0&fife=s16383\" height=\"200\" width=\"auto\" \/><br><br>", "xcoord": 26.0996014, "ycoord": 44.4086882 }, "geometry": { "type": "Point", "coordinates": [ 26.0996014, 44.4086882 ] } },
{ "type": "Feature", "properties": { "Name": "La Pelicani", "description": "Parcul Central lângă statuia a 2 pelicani ", "xcoord": 27.3316106, "ycoord": 44.1895197 }, "geometry": { "type": "Point", "coordinates": [ 27.3316106, 44.1895197 ] } },
{ "type": "Feature", "properties": { "Name": "Scena din Parcul Dumbrava", "description": "Langa Scena\/ teren cu tribune din Parcul Dumbrava", "xcoord": 27.3238768, "ycoord": 44.1929851 }, "geometry": { "type": "Point", "coordinates": [ 27.3238768, 44.1929851 ] } },
{ "type": "Feature", "properties": { "Name": "Țâșnitoare", "description": "<img src=\"https:\/\/mymaps.usercontent.google.com\/hostedimage\/m\/*\/3AL_Y2X5FhzwWIfA7LvvEwFuZo46URs0vDhP3i978whRGTCtwhiQ8jfUusH5W-QANBCUmtAi_NoaWELzpKuqCtC0CHUGL528gPMPl7AIF8BZxpGRuatadLBYsXsVig9Ls7yikqabltQ2fdxRHiha47i4n20NQm7WBIRvkZ1endIgnexeqkPiGuSlBcEeMOsJcZaq94k8zlkZ5FnZIB_gY78kZ0O915IAbuGVYDv_UN6LgXF8lZbsrE0tmjM5sqQ8?authuser=0&fife=s16383\" height=\"200\" width=\"auto\" \/><br><br>", "xcoord": 25.727463, "ycoord": 45.1357386 }, "geometry": { "type": "Point", "coordinates": [ 25.727463, 45.1357386 ] } },
{ "type": "Feature", "properties": { "Name": "Izvor apa potabila", "description": null, "xcoord": 26.2026028, "ycoord": 44.1824595 }, "geometry": { "type": "Point", "coordinates": [ 26.2026028, 44.1824595 ] } },
{ "type": "Feature", "properties": { "Name": "Podu Roş-Parcul Şahiştilor", "description": "Cişmea publică", "xcoord": 27.58677, "ycoord": 47.1508064 }, "geometry": { "type": "Point", "coordinates": [ 27.58677, 47.1508064 ] } },
{ "type": "Feature", "properties": { "Name": "Cişmea Parc Someş", "description": null, "xcoord": 25.627786, "ycoord": 45.6398081 }, "geometry": { "type": "Point", "coordinates": [ 25.627786, 45.6398081 ] } },
{ "type": "Feature", "properties": { "Name": "Cişmea Parc Uranus", "description": null, "xcoord": 25.6303636, "ycoord": 45.6431958 }, "geometry": { "type": "Point", "coordinates": [ 25.6303636, 45.6431958 ] } },
{ "type": "Feature", "properties": { "Name": "Cişmea Apeduct Kertsch", "description": null, "xcoord": 25.5946871, "ycoord": 45.6398446 }, "geometry": { "type": "Point", "coordinates": [ 25.5946871, 45.6398446 ] } },
{ "type": "Feature", "properties": { "Name": "Dr. Taberei \/ spațiu de joacă ", "description": null, "xcoord": 26.0213301, "ycoord": 44.4213526 }, "geometry": { "type": "Point", "coordinates": [ 26.0213301, 44.4213526 ] } },
{ "type": "Feature", "properties": { "Name": "Cismea Curtea Domneasca", "description": null, "xcoord": 26.3685886, "ycoord": 46.9333729 }, "geometry": { "type": "Point", "coordinates": [ 26.3685886, 46.9333729 ] } },
{ "type": "Feature", "properties": { "Name": "Apă în Piața Râmnicu Sărat", "description": "3 chiuvete cu robinet", "xcoord": 26.1464484, "ycoord": 44.4186703 }, "geometry": { "type": "Point", "coordinates": [ 26.1464484, 44.4186703 ] } },
{ "type": "Feature", "properties": { "Name": "Apă în Piața Miniș", "description": "2 chiuvete cu robinet", "xcoord": 26.1698527, "ycoord": 44.4291567 }, "geometry": { "type": "Point", "coordinates": [ 26.1698527, 44.4291567 ] } },
{ "type": "Feature", "properties": { "Name": "Izvor ", "description": "Calitate bună", "xcoord": 25.6678496, "ycoord": 45.04841 }, "geometry": { "type": "Point", "coordinates": [ 25.6678496, 45.04841 ] } },
{ "type": "Feature", "properties": { "Name": "Izvor", "description": "Calitate foarte bună", "xcoord": 25.8685711, "ycoord": 45.4947068 }, "geometry": { "type": "Point", "coordinates": [ 25.8685711, 45.4947068 ] } },
{ "type": "Feature", "properties": { "Name": "Izvor", "description": "Cu urme de minerale", "xcoord": 26.2263454, "ycoord": 45.3366883 }, "geometry": { "type": "Point", "coordinates": [ 26.2263454, 45.3366883 ] } },
{ "type": "Feature", "properties": { "Name": "Izvor Parc Kretzulescu fost Olga Bancic", "description": "Apa de izvor sulfuroasa cu proprietati terapeutice", "xcoord": 25.0488322, "ycoord": 45.2742791 }, "geometry": { "type": "Point", "coordinates": [ 25.0488322, 45.2742791 ] } },
{ "type": "Feature", "properties": { "Name": "Izvor Manastirea Namaiesti", "description": null, "xcoord": 25.1121272, "ycoord": 45.3048244 }, "geometry": { "type": "Point", "coordinates": [ 25.1121272, 45.3048244 ] } },
{ "type": "Feature", "properties": { "Name": "Izvor sat Pojorâta", "description": null, "xcoord": 25.0624485, "ycoord": 45.3633897 }, "geometry": { "type": "Point", "coordinates": [ 25.0624485, 45.3633897 ] } },
{ "type": "Feature", "properties": { "Name": "Izvor Baraj Râușor", "description": null, "xcoord": 25.0598347, "ycoord": 45.3944052 }, "geometry": { "type": "Point", "coordinates": [ 25.0598347, 45.3944052 ] } },
{ "type": "Feature", "properties": { "Name": "Izvor Baraj Râușor 2", "description": null, "xcoord": 25.0637869, "ycoord": 45.4045911 }, "geometry": { "type": "Point", "coordinates": [ 25.0637869, 45.4045911 ] } },
{ "type": "Feature", "properties": { "Name": "Izvor cabana Voina", "description": "Se afla in spatele cabanei voina unde este un robinet", "xcoord": 25.0445031, "ycoord": 45.4422472 }, "geometry": { "type": "Point", "coordinates": [ 25.0445031, 45.4422472 ] } },
{ "type": "Feature", "properties": { "Name": "Izvor Cabana Voina2", "description": "Se afla pestw drum de Camping Voina unde curge un mic izvor de apa din padure", "xcoord": 25.043276, "ycoord": 45.4437164 }, "geometry": { "type": "Point", "coordinates": [ 25.043276, 45.4437164 ] } },
{ "type": "Feature", "properties": { "Name": "Izvor Apa sarată", "description": "Locatia este aproximativa si se afla pe partea stanga cum vii de la Pitesti spre Campulung, la strada este o poarta iar apoi cobori niste scari pana la izvor", "xcoord": 25.0304951, "ycoord": 45.2472543 }, "geometry": { "type": "Point", "coordinates": [ 25.0304951, 45.2472543 ] } },
{ "type": "Feature", "properties": { "Name": "Izvor Clucereasa", "description": "Este la strada principala amenjat in interiorul unei mici troite peste drum de NMR Auto", "xcoord": 24.9429615, "ycoord": 44.9867562 }, "geometry": { "type": "Point", "coordinates": [ 24.9429615, 44.9867562 ] } },
{ "type": "Feature", "properties": { "Name": "Izvor La Cișmea la intrare in Stâlpeni", "description": null, "xcoord": 24.9597578, "ycoord": 45.0213953 }, "geometry": { "type": "Point", "coordinates": [ 24.9597578, 45.0213953 ] } },
{ "type": "Feature", "properties": { "Name": "Țâșnitoare", "description": null, "xcoord": 26.0819884, "ycoord": 44.4029271 }, "geometry": { "type": "Point", "coordinates": [ 26.0819884, 44.4029271 ] } },
{ "type": "Feature", "properties": { "Name": "Țâșnitoare Domenii", "description": "<img src=\"https:\/\/mymaps.usercontent.google.com\/hostedimage\/m\/*\/3AL_Y2X5gK_-Q6Ig3UZyccYdjwSLtATe7iz_AIkwOnBJWoPmd-64E3mpi8Y18tTCSFIFruF2r51gSyrbp1g89QJVWrQu-f42sve9oR3WfB_I4XLOUYYcbkpja_fWu-uqDHGfjW19xSCTVIIWuQSw8h2XFLolT7NfJrv9_XPX7S-4mVRhHSjYNYykauLsansg0NBvCgJRq8tXwkjYt5QwxnXKChrNmXCwgYvir83PivDaYqRLlO6sgscf-Al8PlMk?authuser=0&fife=s16383\" height=\"200\" width=\"auto\" \/><br><br>", "xcoord": 26.0674119, "ycoord": 44.4651856 }, "geometry": { "type": "Point", "coordinates": [ 26.0674119, 44.4651856 ] } },
{ "type": "Feature", "properties": { "Name": "Țâșnitoare dublă Mitropolie", "description": "<img src=\"https:\/\/mymaps.usercontent.google.com\/hostedimage\/m\/*\/3AL_Y2X7vEi7CJbJEjj26afJjqXtvIysKzCt7ACu0TqA-zBhG5fxG-ArHidKvWTtTFmpmgTzZKasIMI-bHd4TmsNKGScfYOC_uf6A3-gY4uOH_nw50SL_a4i85TcImNHt1AyzRpfzTfXYfLItUPPPR_g5EcavPWxOdSAGHTifSCtFByyR_C2NywlOeuiaehhiDYJATGCHQPDiXpqSwJ-LtwnGWH_GyyJBxnrj4SbtVLAQASRqAxSbOBfcytLvxeI?authuser=0&fife=s16383\" height=\"200\" width=\"auto\" \/><br><br>Kid friendly", "xcoord": 25.4599189, "ycoord": 44.9257276 }, "geometry": { "type": "Point", "coordinates": [ 25.4599189, 44.9257276 ] } },
{ "type": "Feature", "properties": { "Name": "Cișmea + Țâșnitoare Publică Platou", "description": "<img src=\"https:\/\/mymaps.usercontent.google.com\/hostedimage\/m\/*\/3AL_Y2X4Ai4_ov1o85zV4frLlpTKl88GQGXuDApftRilg8pB64bD7owszF7ZmkXC_Xo8C3_M3E0DWNZAIVXvWmrmYrd4TaZPm-nyktovL4V3-UzV55qxm8tUZI13RD1XLo-m1gnmpKeIB8wm9AQY-al1ZbEpFO7g831_vsZ3dy6WtO-q0hydTo86S2tMx70U_vaA5tCoKT30beBpsZcfljerdj_8HM2_UU76MFznGUabQaYux-9b2gdfnx7m1Z8c?authuser=0&fife=s16383\" height=\"200\" width=\"auto\" \/><br><br>🐕 Pet Friendly", "xcoord": 25.4631871, "ycoord": 44.9267042 }, "geometry": { "type": "Point", "coordinates": [ 25.4631871, 44.9267042 ] } },
{ "type": "Feature", "properties": { "Name": "Țâșnitoare Publică", "description": "<img src=\"https:\/\/mymaps.usercontent.google.com\/hostedimage\/m\/*\/3AL_Y2X7ZA-I1v6mgKU_9YIpaEHukzy6VJp-hncS1ONhX5hlzFeWXhFvcoqQYDQ4AawyYw0DFdk0Zt6Na5ms2rsk0dW9u6UdyKa2uaI9h5GLt5pP2frsh3N_LuDNgH7UWf0IxeC67tC7TQeNbbRJ56M9OmoAgrW8qeUrmLl_5z4W62rt9hEC_ylOkvCOobfMPYZYIckmy2xIhepx_PUai9bqN30gvAMBib0mORGp3inv6R5hk9sQlrRHfLm62X6I?authuser=0&fife=s16383\" height=\"200\" width=\"auto\" \/><br><br>", "xcoord": 25.4622859, "ycoord": 44.9267934 }, "geometry": { "type": "Point", "coordinates": [ 25.4622859, 44.9267934 ] } },
{ "type": "Feature", "properties": { "Name": "Puț apă potabilă", "description": "<img src=\"https:\/\/mymaps.usercontent.google.com\/hostedimage\/m\/*\/3AL_Y2X6a0T0Z3JClBHSwOWuS71_00S0Pd_RdnsTqMLexG0LrQMirOACRutfFtatU4Ezg8MXNh8DLY7EC6oNvnDF8vl7F1hPvgFw5OYPi73OF1iC3dJ7DT5JVgVZAptBHD1qcew1GS9bPJqrJbcwTRzDqBdCnYjNDn9IejuY35H7nxQuqbk1TIhVmQGK4D1nquincMxVVh-32DKmLEIaSyzZQUUWsMrsGk9NUIfjTlNe6OMkZzcA70mX9fe4srlU?authuser=0&fife=s16383\" height=\"200\" width=\"auto\" \/><br><br>", "xcoord": 25.3947908, "ycoord": 45.0214642 }, "geometry": { "type": "Point", "coordinates": [ 25.3947908, 45.0214642 ] } },
{ "type": "Feature", "properties": { "Name": "Puț", "description": "<img src=\"https:\/\/mymaps.usercontent.google.com\/hostedimage\/m\/*\/3AL_Y2X6wikRtJ949Pk8js6OO9EB6FqQlYlVdVRvM1d2t7WDAq3siYle7RS3RlKi2WJizsvRYoHHPk-XTWlAfNd-pmolm6n1VNeOXr7kJo9Y7AvwGZ5dKqhQD7HlRLFmXiVTFFxIrtmvg84oLkxYbJvdJcA6ig6MQAi679CYdayjM_v08pmYOLU5CjQnSj5ht5-2ej7Gbqqw1OgHC27qZYd0aLTEA8zCo_HxhOFoxI7E1TdMbx5sk1uhqrSc6LS4?authuser=0&fife=s16383\" height=\"200\" width=\"auto\" \/><br><br>", "xcoord": 25.392781, "ycoord": 45.0226319 }, "geometry": { "type": "Point", "coordinates": [ 25.392781, 45.0226319 ] } },
{ "type": "Feature", "properties": { "Name": "Țâșnitoare", "description": "<img src=\"https:\/\/mymaps.usercontent.google.com\/hostedimage\/m\/*\/3AL_Y2X7gAAE0uYSUCjBAW53bB-WNd-jd-ldRIN6hxGkonQbqmlwqqC47abIDRL4Hs3tNX8y_ulyStJDWu9moTZOaEEw1y_pfPZl29bxQ-qwNb_qwcvrCdkY4j2HXpxFFzArviOYJIKBqC4UK8Og4SPbW0y2h8LbVG6Xvmm49CQtL3oIgrUGdaLG8x_Kg8Y5CIrKkHdcd0s8sAn9LWAxyGZWYf361ZIqIDJPtKpMF3jTpf3XLa849Kt5LpFBVvYE?authuser=0&fife=s16383\" height=\"200\" width=\"auto\" \/><br><br>", "xcoord": 26.0633019, "ycoord": 44.4378601 }, "geometry": { "type": "Point", "coordinates": [ 26.0633019, 44.4378601 ] } },
{ "type": "Feature", "properties": { "Name": "Cișmea Școala George Enescu", "description": "<img src=\"https:\/\/mymaps.usercontent.google.com\/hostedimage\/m\/*\/3AL_Y2X7PBCirY70KUpK-jtI72ZcNpP5iadyW-DjmZ0vXw5w8BM0oFLDfmhMwThPrbXPPWTFWl8StrpLHYQsSYKi3x3vtonbiCpAOmQpKaJmB8b7JBncw2iY1H6CT3UgR9Ml34MHGUEton5kuHz-FpzmotLAShc2UPv13glFaFadoQHu39fcu0KoFaRb0pG7UOmxF9AwmFM7gzZljE1NMmpHx1mIU0fePrIJ13XGKTxQxPbdUDpNSfE6_EB3VRtw?authuser=0&fife=s16383\" height=\"200\" width=\"auto\" \/><br><br>", "xcoord": 25.5474994, "ycoord": 45.3475261 }, "geometry": { "type": "Point", "coordinates": [ 25.5474994, 45.3475261 ] } },
{ "type": "Feature", "properties": { "Name": "Cișmea Peleș", "description": "<img src=\"https:\/\/mymaps.usercontent.google.com\/hostedimage\/m\/*\/3AL_Y2X6Ec4pUbpBCX8srJb1AhJuH08I7t-znv99x9Omg2Ll4yqhqCOt3iZl7Z6V_TIXNcZxq_c8lBPArhouM0ltjAw2QWblWQUqSSE4OQq9yEbU56DknHH7DDH1ulM8fpeaZtSu0eE5pRN2enpBU43GCpb32d49p4DgMMSGrUC0Si0CaHBaT0mrpPVFahsuQLn4K2MZuXwbnBbpDYprpKjfSLhkjZ6GKdQm8-x1QXjxtmY_jozX-pJeol5J_YrE?authuser=0&fife=s16383\" height=\"200\" width=\"auto\" \/><br><br>", "xcoord": 25.5444174, "ycoord": 45.358801 }, "geometry": { "type": "Point", "coordinates": [ 25.5444174, 45.358801 ] } },
{ "type": "Feature", "properties": { "Name": "Cișmea pet friendly 🦮", "description": "<img src=\"https:\/\/mymaps.usercontent.google.com\/hostedimage\/m\/*\/3AL_Y2X5iTyxXH4V3_TcKw3jVGN3IiwpRunT8r-UImuzmuoZJVX6HSc0fSTRqkOxqNrV9IKA7Ae1djVDbMOpQxyOXo1iy7H-8p1LsoZOkvTuPTBo83jcD-T4VCulMLFDP6FUp9z4N6n1R3Les7njeNpDQffxg71Vu33e1BqYrRLLmWYj0P37xopM2XCLMLnsK69AKjkGaJAL6Iiiv-bB2saJJniM_4ZBcvWSAdu8pCgutuTAIHWrRBAosAfns2xU?authuser=0&fife=s16383\" height=\"200\" width=\"auto\" \/><br><br>", "xcoord": 26.0339004, "ycoord": 44.4192306 }, "geometry": { "type": "Point", "coordinates": [ 26.0339004, 44.4192306 ] } },
{ "type": "Feature", "properties": { "Name": "Cişmea Pet Friendly 🦮", "description": "<img src=\"https:\/\/mymaps.usercontent.google.com\/hostedimage\/m\/*\/3AL_Y2X5BR2BY54WLZLGgklOVCg90_CxSppQFK9vhJ0yUMmQNrp7KtDHPdI8VENm1LmUyox5QUoOMpkO0wfQOMl2q5It5HoodbBb8v5JdKfiOLa0FvIJr1wlRLz5zWIwpjbF3Zz9JEMLx3JO8m5j8FEn96J5L1dZSD2FeQhQunNNu6VlJ6v-DKUNxFba0OmrJNE-f3BDoq4kHV04Ae4GGqSS6CnxPoNAOYknG3zp5CT-a6Ye_lorF9Z6LtgCa4UE?authuser=0&fife=s16383\" height=\"200\" width=\"auto\" \/><br><br>", "xcoord": 26.0338716, "ycoord": 44.4187267 }, "geometry": { "type": "Point", "coordinates": [ 26.0338716, 44.4187267 ] } },
{ "type": "Feature", "properties": { "Name": "Cișmea Pet Friendly 🦮", "description": "<img src=\"https:\/\/mymaps.usercontent.google.com\/hostedimage\/m\/*\/3AL_Y2X7noBJuoPsD5YXuVzm2Gy_t__XEVL7BWLxEKmQCzo-Z5REhk6vFQSJSOiqSy-NDA2Lhe85hrT77bsdPrt8Ca96dsnaI4RH77w6Z2KBYg366GpY3XZXOOjHbvDW1jlZ6wPP2WuWwWkZMW4eqSbDyN7KgeU95RFkkHFXM1VKLFIgypuVyK-WpYYcyAs1cufHB4tEH7QYVfZlqA7ghxx-4zbJXjbxrGlnZsVkXnfR5wB0_ql8mTtORK04JnqQ?authuser=0&fife=s16383\" height=\"200\" width=\"auto\" \/><br><br>", "xcoord": 26.0770862, "ycoord": 44.4755819 }, "geometry": { "type": "Point", "coordinates": [ 26.0770862, 44.4755819 ] } },
{ "type": "Feature", "properties": { "Name": "Țâșnitoare", "description": "<img src=\"https:\/\/mymaps.usercontent.google.com\/hostedimage\/m\/*\/3AL_Y2X4fACi4Imc8Y-OiNlW8U8i7j6c0ZXPgUeb0mtXSqzkVoLnbl3e93sepLLQ-cNYVPxH9SlY5wslOPavmrqvzLlEZe4YtRMVftsPj0g6_7unbcZuLPiQ0xgr8qzZcx1snL2i5TjGpKAmCKqOwjWovrcFP8qDPeimaAI0SLteHJHSAvjWbi0L0oWufpNHh3UOCHCsqNigTf_ZO2iU0Qd5pZiDUhxsZZdfmTLyRs3gdsehZrcDHbFjoyfdYGmY?authuser=0&fife=s16383\" height=\"200\" width=\"auto\" \/><br><br>", "xcoord": 26.0906547, "ycoord": 44.4384839 }, "geometry": { "type": "Point", "coordinates": [ 26.0906547, 44.4384839 ] } },
{ "type": "Feature", "properties": { "Name": "Point 132", "description": null, "xcoord": 26.08975, "ycoord": 44.437084 }, "geometry": { "type": "Point", "coordinates": [ 26.08975, 44.437084 ] } },
{ "type": "Feature", "properties": { "Name": "Țâșnitoare", "description": "<img src=\"https:\/\/mymaps.usercontent.google.com\/hostedimage\/m\/*\/3AL_Y2X4yUKw5axKY0Ge1PCUkhu3-f-zLLffwzkNhTxwnoqILBJ55lStU6nO55iTSCEgLFW-kWEmbBV64I86N1XnTFl1v-SQ_OIW1xpwKWQb36TpwhCgZc6RPc1VxGCrLxb1s6qxLxnFfGSSRh3l-7tKkiqvJVUOjjslC9Yfb08SKg7mbnbgrOe9UPmsqA_0N7I_1vxAEl0GldpxgSLpUNbhnUnks9uABTOjwTofey3zBpm09DCFA03zCx3Arl8E?authuser=0&fife=s16383\" height=\"200\" width=\"auto\" \/><br><br>", "xcoord": 26.0914092, "ycoord": 44.4367807 }, "geometry": { "type": "Point", "coordinates": [ 26.0914092, 44.4367807 ] } },
{ "type": "Feature", "properties": { "Name": "Cișmea", "description": "<img src=\"https:\/\/mymaps.usercontent.google.com\/hostedimage\/m\/*\/3AL_Y2X7NqP7-OOFcVOdaVYGKZgdZNPpEjgYyvZ-WtLyQcv54jpeG1IrScTzG1pYg0mopRB1Ck5dhc1VbCjVcyNEjc0YBovral_DKgcMrvCTepe_hGqJXtXTXZbzM40XGVXklUMrbYyBl1TAYJh-uefdEoqZRwdYb-AOWSNg9L7wa0uzmnUT3_uKPMKPa_aeewGQZOpsUiE1_AOLPM-mewbQ6VFTf1pv9XoDZ9CHqmhfSMK8MnAugWeHB3jRI41s?authuser=0&fife=s16383\" height=\"200\" width=\"auto\" \/><br><br>", "xcoord": 25.3969128, "ycoord": 45.0187457 }, "geometry": { "type": "Point", "coordinates": [ 25.3969128, 45.0187457 ] } },
{ "type": "Feature", "properties": { "Name": "Cișmea grădinița Stanciova", "description": null, "xcoord": 21.5713158, "ycoord": 45.8672838 }, "geometry": { "type": "Point", "coordinates": [ 21.5713158, 45.8672838 ] } },
{ "type": "Feature", "properties": { "Name": "Cismea Publica ", "description": null, "xcoord": 26.1581864, "ycoord": 44.4192429 }, "geometry": { "type": "Point", "coordinates": [ 26.1581864, 44.4192429 ] } },
{ "type": "Feature", "properties": { "Name": "Cismea Publica intrare Insula Cainilor", "description": null, "xcoord": 26.1581194, "ycoord": 44.4201194 }, "geometry": { "type": "Point", "coordinates": [ 26.1581194, 44.4201194 ] } },
{ "type": "Feature", "properties": { "Name": "Cismea Publica Insula Cainilor", "description": null, "xcoord": 26.1569196, "ycoord": 44.4209098 }, "geometry": { "type": "Point", "coordinates": [ 26.1569196, 44.4209098 ] } },
{ "type": "Feature", "properties": { "Name": "Cismea Publica Insula Cainilor", "description": null, "xcoord": 26.1576088, "ycoord": 44.4194129 }, "geometry": { "type": "Point", "coordinates": [ 26.1576088, 44.4194129 ] } },
{ "type": "Feature", "properties": { "Name": "Cismea Publica Insula Cainilor", "description": null, "xcoord": 26.1551512, "ycoord": 44.4196658 }, "geometry": { "type": "Point", "coordinates": [ 26.1551512, 44.4196658 ] } },
{ "type": "Feature", "properties": { "Name": "Cismea Parcul Botanic", "description": null, "xcoord": 21.2251254, "ycoord": 45.7590934 }, "geometry": { "type": "Point", "coordinates": [ 21.2251254, 45.7590934 ] } },
{ "type": "Feature", "properties": { "Name": "Cismea Calea Aradului", "description": null, "xcoord": 21.2211961, "ycoord": 45.7745414 }, "geometry": { "type": "Point", "coordinates": [ 21.2211961, 45.7745414 ] } },
{ "type": "Feature", "properties": { "Name": "Cismea Telegrafului", "description": null, "xcoord": 21.2475987, "ycoord": 45.7640929 }, "geometry": { "type": "Point", "coordinates": [ 21.2475987, 45.7640929 ] } },
{ "type": "Feature", "properties": { "Name": "Cismea Parcul Copiilor", "description": null, "xcoord": 21.2380535, "ycoord": 45.7533764 }, "geometry": { "type": "Point", "coordinates": [ 21.2380535, 45.7533764 ] } },
{ "type": "Feature", "properties": { "Name": "Cismea Parcul Rozelor", "description": null, "xcoord": 21.231857, "ycoord": 45.7504947 }, "geometry": { "type": "Point", "coordinates": [ 21.231857, 45.7504947 ] } },
{ "type": "Feature", "properties": { "Name": "Cismea Sala Olimpia", "description": null, "xcoord": 21.2410311, "ycoord": 45.7459224 }, "geometry": { "type": "Point", "coordinates": [ 21.2410311, 45.7459224 ] } },
{ "type": "Feature", "properties": { "Name": "Cismea Popa Sapca", "description": null, "xcoord": 21.2324795, "ycoord": 45.7599699 }, "geometry": { "type": "Point", "coordinates": [ 21.2324795, 45.7599699 ] } },
{ "type": "Feature", "properties": { "Name": "Cismea Parcul Cugir", "description": null, "xcoord": 21.2195722, "ycoord": 45.7763216 }, "geometry": { "type": "Point", "coordinates": [ 21.2195722, 45.7763216 ] } },
{ "type": "Feature", "properties": { "Name": "Point 150", "description": null, "xcoord": 21.2394889, "ycoord": 45.7407921 }, "geometry": { "type": "Point", "coordinates": [ 21.2394889, 45.7407921 ] } },
{ "type": "Feature", "properties": { "Name": "Cismea Parc Mosnita", "description": null, "xcoord": 21.3225916, "ycoord": 45.7194393 }, "geometry": { "type": "Point", "coordinates": [ 21.3225916, 45.7194393 ] } },
{ "type": "Feature", "properties": { "Name": "Point 152", "description": null, "xcoord": 21.3245873, "ycoord": 45.7158498 }, "geometry": { "type": "Point", "coordinates": [ 21.3245873, 45.7158498 ] } },
{ "type": "Feature", "properties": { "Name": "Point 153", "description": null, "xcoord": 21.2647175, "ycoord": 45.7300823 }, "geometry": { "type": "Point", "coordinates": [ 21.2647175, 45.7300823 ] } },
{ "type": "Feature", "properties": { "Name": "Punct 154", "description": null, "xcoord": 21.2413111, "ycoord": 45.7314849 }, "geometry": { "type": "Point", "coordinates": [ 21.2413111, 45.7314849 ] } },
{ "type": "Feature", "properties": { "Name": "Cismea Ismail", "description": null, "xcoord": 21.2771111, "ycoord": 45.7599482 }, "geometry": { "type": "Point", "coordinates": [ 21.2771111, 45.7599482 ] } },
{ "type": "Feature", "properties": { "Name": "Cismea Gheorghe Ostrogovich", "description": null, "xcoord": 21.2246188, "ycoord": 45.7732414 }, "geometry": { "type": "Point", "coordinates": [ 21.2246188, 45.7732414 ] } },
{ "type": "Feature", "properties": { "Name": "Cismea Piata Avram Iancu", "description": null, "xcoord": 21.2054815, "ycoord": 45.764767 }, "geometry": { "type": "Point", "coordinates": [ 21.2054815, 45.764767 ] } },
{ "type": "Feature", "properties": { "Name": "Loc ucidere Vlad Tepes", "description": null, "xcoord": 26.1147077, "ycoord": 44.1176067 }, "geometry": { "type": "Point", "coordinates": [ 26.1147077, 44.1176067 ] } },
{ "type": "Feature", "properties": { "Name": "Punct 159", "description": null, "xcoord": 24.7798085, "ycoord": 45.0927726 }, "geometry": { "type": "Point", "coordinates": [ 24.7798085, 45.0927726 ] } },
{ "type": "Feature", "properties": { "Name": "Țâșnitoare Cultural", "description": null, "xcoord": 26.1147716, "ycoord": 44.3832368 }, "geometry": { "type": "Point", "coordinates": [ 26.1147716, 44.3832368 ] } },
{ "type": "Feature", "properties": { "Name": "Punct 158", "description": null, "xcoord": 26.1011796, "ycoord": 44.4270155 }, "geometry": { "type": "Point", "coordinates": [ 26.1011796, 44.4270155 ] } },
{ "type": "Feature", "properties": { "Name": "Punct 159", "description": null, "xcoord": 26.0609154, "ycoord": 44.4427016 }, "geometry": { "type": "Point", "coordinates": [ 26.0609154, 44.4427016 ] } },
{ "type": "Feature", "properties": { "Name": "♿️ Țâșnitoare ", "description": "<img src=\"https:\/\/mymaps.usercontent.google.com\/hostedimage\/m\/*\/3AL_Y2X7CNpKLI6OHMFePfoFhwU2BM6iNWcP87LH964ISmoDABDsTUqoJcg7bhYTVdkdSntSoxGj4s8k4iBbFT3puQL5TCVrVuum3ByL22apP6-fZnxQpprnPrByGXbQOwEU3LW1XQRNaxPlEdnKhSIDhQbYkyQIeOendN6lZyQTq8M1ePM7UjyUp86YWyFYsm6FXfV5_TM0HeE4H65Y_XkcfAQ0S7R05g_5h7a7s4HIA49rEm5tTSlDdTT9IRXs?authuser=0&fife=s16383\" height=\"200\" width=\"auto\" \/><br><br>", "xcoord": 28.6615597, "ycoord": 43.809458 }, "geometry": { "type": "Point", "coordinates": [ 28.6615597, 43.809458 ] } },
{ "type": "Feature", "properties": { "Name": "Punct 161", "description": null, "xcoord": 26.0056204, "ycoord": 44.433956 }, "geometry": { "type": "Point", "coordinates": [ 26.0056204, 44.433956 ] } },
{ "type": "Feature", "properties": { "Name": "Punct 162", "description": null, "xcoord": 26.0255032, "ycoord": 44.4269462 }, "geometry": { "type": "Point", "coordinates": [ 26.0255032, 44.4269462 ] } },
{ "type": "Feature", "properties": { "Name": "Cișmea livada postei", "description": null, "xcoord": 25.5888952, "ycoord": 45.6455455 }, "geometry": { "type": "Point", "coordinates": [ 25.5888952, 45.6455455 ] } },
{ "type": "Feature", "properties": { "Name": "Țâșnitoare Fântâna Horoscop", "description": "<img src=\"https:\/\/mymaps.usercontent.google.com\/hostedimage\/m\/*\/3AL_Y2X6xBGSRytII8AsYSbqhbtik_U09nKL8KoE0ZrzIOf5biwur6y5smRgddEJtoWxkTLjyU9ZBuHfvYmubXXqMCQFrDpnIZXhOWSXtWcabtH1fdgrBJuV5SpyhX_LIBsLtxtXeWL92SRYXQu_6DGCamX54Y9UlvAkexWm4rUXQOWKF32ozuV2kEHfuIjXH_TvsddlbKRSOoz-iUJhONBOBsZpTfmNNZkB7fNcPrK89_ZY6wGmKZ-0y3tp6zhQ?authuser=0&fife=s16383\" height=\"200\" width=\"auto\" \/><br><br>Dată foto 20.09.2024", "xcoord": 26.0613672, "ycoord": 44.374169 }, "geometry": { "type": "Point", "coordinates": [ 26.0613672, 44.374169 ] } },
{ "type": "Feature", "properties": { "Name": "Punct 165", "description": null, "xcoord": 26.0824175, "ycoord": 44.4464235 }, "geometry": { "type": "Point", "coordinates": [ 26.0824175, 44.4464235 ] } },
{ "type": "Feature", "properties": { "Name": "Punct 166", "description": null, "xcoord": 26.1271452, "ycoord": 44.4561579 }, "geometry": { "type": "Point", "coordinates": [ 26.1271452, 44.4561579 ] } },
{ "type": "Feature", "properties": { "Name": "Punct 167", "description": null, "xcoord": 26.1119288, "ycoord": 44.4585975 }, "geometry": { "type": "Point", "coordinates": [ 26.1119288, 44.4585975 ] } },
{ "type": "Feature", "properties": { "Name": "Izvor Storesti", "description": "In Aug 2024 debitul era foarte mic", "xcoord": 26.8650862, "ycoord": 47.5416389 }, "geometry": { "type": "Point", "coordinates": [ 26.8650862, 47.5416389 ] } },
{ "type": "Feature", "properties": { "Name": "Țâșnitoare Hanu lui Manuc", "description": "<img src=\"https:\/\/mymaps.usercontent.google.com\/hostedimage\/m\/*\/3AL_Y2X4R2rlGeMde3Gy9ePfpEu4JUynRosDE0FjXcOGWkIJbzkmbK1fx-Wdg6_KhQzOprPgDNt6D51vUebcjrzUDuG_re6BOR5_1gUJLdkKXoQdGW6L-248EeyJhqX08tlI-jMYh9ZXMhyLxCjQLSmtWvEm3K6FsrgN68lWND_cIV2_QGjRnelzNnFZNBtGQA5RUE8EaRWokxaHd76Ok-mJ16Y9pKtDlDA6XkhHB2FeUwE8P4nDMNEYqWDe5NxU?authuser=0&fife=s16383\" height=\"200\" width=\"auto\" \/><br><br>Dată intrare: 15.09.2024", "xcoord": 26.1019557, "ycoord": 44.4292472 }, "geometry": { "type": "Point", "coordinates": [ 26.1019557, 44.4292472 ] } },
{ "type": "Feature", "properties": { "Name": "Țâșnitoare", "description": "<img src=\"https:\/\/mymaps.usercontent.google.com\/hostedimage\/m\/*\/3AL_Y2X5hu85vUo6qu4W6HsIyHL9CMt1lBwG26xObPnvKA-U2xDtVHr0trnHEgncpjK6ruVyuiCYO70PTLT3rw8wWQuchGr6AnwXeyM6T_huVeOZIs_kEk6gNX5CLvp34R4dWlzBcnO-vYaXbCRecoRoLJOJMPzDSE6NF8gT8DJisNXIxg5f3h-lbMOqDk5-MlKNKUkg6DM7twb5LESqs9h5jDFsVViyQKgzeNCnRhSZvqwTsCl-x-l-yYDnCI6s?authuser=0&fife=s16383\" height=\"200\" width=\"auto\" \/><br><br>Data intrare 15.09.2024", "xcoord": 26.0976493, "ycoord": 44.4327776 }, "geometry": { "type": "Point", "coordinates": [ 26.0976493, 44.4327776 ] } },
{ "type": "Feature", "properties": { "Name": "Cișmea", "description": "🐕 friendly", "xcoord": 26.0972189, "ycoord": 44.4104686 }, "geometry": { "type": "Point", "coordinates": [ 26.0972189, 44.4104686 ] } },
{ "type": "Feature", "properties": { "Name": "Țâșnitoare autogara IDM", "description": "<img src=\"https:\/\/mymaps.usercontent.google.com\/hostedimage\/m\/*\/3AL_Y2X7b_pQGxe9rh1-d074v-DkYzZ5cdr-b9tEme9Cs8TnMwHRnjGjtUmUdAmzzek730o1RkkoN7YVvSkZaYEBX5MCYc7XqEWXGKRp2L_MlvnU-BUFg6ZPkk-AxMA4eLgxOTq5AVsrzotvKh2t-Ljd3IAGZqSijETMfq8KIDpzqewIioXTqMAHByB7eoMwG38Du8JR7ffBj0vu3phvx3-G4HFTPtenYc-g3npy6uGGlduZ1h5-Fyn9h6BjgZbo?authuser=0&fife=s16383\" height=\"200\" width=\"auto\" \/><br><br>Data foto: 20.09.2024", "xcoord": 26.0662749, "ycoord": 44.4493301 }, "geometry": { "type": "Point", "coordinates": [ 26.0662749, 44.4493301 ] } },
{ "type": "Feature", "properties": { "Name": "Țâșnitoare Parcul Liniei", "description": "<img src=\"https:\/\/mymaps.usercontent.google.com\/hostedimage\/m\/*\/3AL_Y2X5Rrv5qEgV6IEC1QRs6wpMsZh3eN0jMtFRiVRWEqKZk1d4V67krC0sKPjosBjmMSm8DRQzLL-8pw56-kB2bGYk2gysF4XUx5DcwrC-nKAneZec9WcIgKNFRSsDnZaNXXdf-ELUDffJHfPJGHdYEeNs9VD0ohYkELqxDqUlGzCUSO9DqrkcRNX-XW1PM1tIYcFGzhINA-HNcWJg7uSjbl_EqSndDIkQqhw_izflt8Eo8EKjNYXWCjbikIEc?authuser=0&fife=s16383\" height=\"200\" width=\"auto\" \/><br><br>Foto 10.10.2024", "xcoord": 26.0350654, "ycoord": 44.4316777 }, "geometry": { "type": "Point", "coordinates": [ 26.0350654, 44.4316777 ] } },
{ "type": "Feature", "properties": { "Name": "Cișmea Parc", "description": "<img src=\"https:\/\/mymaps.usercontent.google.com\/hostedimage\/m\/*\/3AL_Y2X4Q6yROuoRq4KIAr7rWRvGsLbBAU6VeT-qamPaH2VJhrREREgICqdK8gSW8Y4N6-E5RLM8E8IwX1YU0IQqDo4XF_VC5M8M0EgCTyYATUeb4dxBrpw3lzBH97MTWpCppLyC_8jWPBiML4nvItxsi90vcpDThCPRp5MNkRhJ3fIovT77O5vdWcJUunsLYi1a7_9CLLWDp9T3H0809Cz0LxFDvjiG9rPRZNFVetemmutMB6tVSwX7yckW__3o?authuser=0&fife=s16383\" height=\"200\" width=\"auto\" \/><br><br>Foto 10.10.2024", "xcoord": 26.0323584, "ycoord": 44.420535 }, "geometry": { "type": "Point", "coordinates": [ 26.0323584, 44.420535 ] } },
{ "type": "Feature", "properties": { "Name": "Cișmea Parc", "description": "<img src=\"https:\/\/mymaps.usercontent.google.com\/hostedimage\/m\/*\/3AL_Y2X5c3aaCsS6cOy0XdNRCywfWCbVA-pezrk3VUY2TAKCjumQRV7nzNQQSs7tzSogcO7yw6dio_ccYIG0JEaJYrwzRd-pQaodjpa2SpKsW_giUVuINB3QeYEUPFhhaYPrtVtbRmfOEjC-_ObPOD-McxkOFihzVVcaGbaZS6Ns4c7WctvKboy1XgZ4KrZ5bBoOKOvguRSfgWhkqHr4qqjZQGYY_ZY7GCiUgfFyVHVb9PlyFozDVwRsykHdjffI?authuser=0&fife=s16383\" height=\"200\" width=\"auto\" \/><br><br>Foro 10.10.2024", "xcoord": 26.0339328, "ycoord": 44.4215768 }, "geometry": { "type": "Point", "coordinates": [ 26.0339328, 44.4215768 ] } },
{ "type": "Feature", "properties": { "Name": "Comuna Odobesti, Dambovita ", "description": "Put de mare adâncime cu apa potabila", "xcoord": 25.5500541, "ycoord": 44.6043277 }, "geometry": { "type": "Point", "coordinates": [ 25.5500541, 44.6043277 ] } },
{ "type": "Feature", "properties": { "Name": "Point 177", "description": "Cismea Parc Trandafirilor", "xcoord": 25.6142964, "ycoord": 45.6408503 }, "geometry": { "type": "Point", "coordinates": [ 25.6142964, 45.6408503 ] } },
{ "type": "Feature", "properties": { "Name": "Point 178", "description": "Cismea Pietonal", "xcoord": 25.6116583, "ycoord": 45.6379957 }, "geometry": { "type": "Point", "coordinates": [ 25.6116583, 45.6379957 ] } },
{ "type": "Feature", "properties": { "Name": "Vital Complex Maramureșul", "description": null, "xcoord": 23.5679834, "ycoord": 47.6537722 }, "geometry": { "type": "Point", "coordinates": [ 23.5679834, 47.6537722 ] } },
{ "type": "Feature", "properties": { "Name": "Vital - Hotel Mara", "description": null, "xcoord": 23.5695875, "ycoord": 47.6518667 }, "geometry": { "type": "Point", "coordinates": [ 23.5695875, 47.6518667 ] } },
{ "type": "Feature", "properties": { "Name": "Țâșnitoare", "description": "<img src=\"https:\/\/mymaps.usercontent.google.com\/hostedimage\/m\/*\/3AL_Y2X61ZfbULdBPPvZE8w2wVp6MOoNOIvLcZKn-rnxZj7SpVfeC1Zf9x4YaHL9H0d2lr79RgZa7xfvgMmD_tHjvi85JAFrKAKkLfl5GUFI1I1PeiacD1gPqto18T5DzxktRknnIS_NHJjCursgBRV9Y4J-uBvAqUbXvuBbLq7Ra1oi9SzZV2wpArkUgankPJcIURXGjqJKALY4UtLYYSR_ERn1oZcstJ_nEkr8gDRWdpSQgOyED1XBRKOBfmjk?authuser=0&fife=s16383\" height=\"200\" width=\"auto\" \/><br><br>poza 05.06.2025", "xcoord": 26.0240425, "ycoord": 44.5708722 }, "geometry": { "type": "Point", "coordinates": [ 26.0240425, 44.5708722 ] } },
{ "type": "Feature", "properties": { "Name": "Izvor", "description": null, "xcoord": 27.6404655, "ycoord": 47.0814683 }, "geometry": { "type": "Point", "coordinates": [ 27.6404655, 47.0814683 ] } },
{ "type": "Feature", "properties": { "Name": "Cişmea", "description": "<img src=\"https:\/\/mymaps.usercontent.google.com\/hostedimage\/m\/*\/3AL_Y2X5kJsKxtpJKuQqnesoAGl3T8oF5lej254aGTrNbj0_dRDH6VX6RWVCfaivGazzG0zE-0sUpUOkTlTLkRGkR1MjezPmNcOzVM6rBOGoJSDHyVG4zrF-MzeGSMu_fgntOIXvNL1acaxwdkTZz1owIQSpbkYaOsPYuDFie9q3g_pdQvXChLKwYYekILib_gIyDUHwZdt7Xp5ytlIqsuHtdj8rsBzCKrYggSDNP9wQVoKt0HKfZd5XTVUiBmc8?authuser=0&fife=s16383\" height=\"200\" width=\"auto\" \/><br><br>Foto 07.06.25", "xcoord": 26.0819066, "ycoord": 44.4702706 }, "geometry": { "type": "Point", "coordinates": [ 26.0819066, 44.4702706 ] } },
{ "type": "Feature", "properties": { "Name": "University's Square", "description": null, "xcoord": 26.1011925, "ycoord": 44.4347985 }, "geometry": { "type": "Point", "coordinates": [ 26.1011925, 44.4347985 ] } },
{ "type": "Feature", "properties": { "Name": "Țâşnitoare", "description": "Data foto 17.07.25", "xcoord": 26.0812841, "ycoord": 44.4582864 }, "geometry": { "type": "Point", "coordinates": [ 26.0812841, 44.4582864 ] } },
{ "type": "Feature", "properties": { "Name": "Cismea Manastire", "description": null, "xcoord": 24.6752241, "ycoord": 45.1551686 }, "geometry": { "type": "Point", "coordinates": [ 24.6752241, 45.1551686 ] } },
{ "type": "Feature", "properties": { "Name": "Izvor Fantana lui Manole", "description": null, "xcoord": 24.6744789, "ycoord": 45.1553649 }, "geometry": { "type": "Point", "coordinates": [ 24.6744789, 45.1553649 ] } },
{ "type": "Feature", "properties": { "Name": "Cismea Casa de Cultura", "description": null, "xcoord": 24.6757594, "ycoord": 45.1490231 }, "geometry": { "type": "Point", "coordinates": [ 24.6757594, 45.1490231 ] } },
{ "type": "Feature", "properties": { "Name": "Cismea Terasa", "description": null, "xcoord": 24.6790558, "ycoord": 45.1520104 }, "geometry": { "type": "Point", "coordinates": [ 24.6790558, 45.1520104 ] } },
{ "type": "Feature", "properties": { "Name": "Izvor Groape", "description": null, "xcoord": 24.6763008, "ycoord": 45.16046 }, "geometry": { "type": "Point", "coordinates": [ 24.6763008, 45.16046 ] } },
{ "type": "Feature", "properties": { "Name": "Izvor Manastire", "description": null, "xcoord": 24.674135, "ycoord": 45.156515 }, "geometry": { "type": "Point", "coordinates": [ 24.674135, 45.156515 ] } },
{ "type": "Feature", "properties": { "Name": "Cismea Hidroelectrica", "description": null, "xcoord": 24.6757402, "ycoord": 45.1454811 }, "geometry": { "type": "Point", "coordinates": [ 24.6757402, 45.1454811 ] } },
{ "type": "Feature", "properties": { "Name": "Izvoarele de Leac - Valcele", "description": null, "xcoord": 24.6670285, "ycoord": 45.0232262 }, "geometry": { "type": "Point", "coordinates": [ 24.6670285, 45.0232262 ] } },
{ "type": "Feature", "properties": { "Name": "Cismea ", "description": null, "xcoord": 24.6522832, "ycoord": 45.3685066 }, "geometry": { "type": "Point", "coordinates": [ 24.6522832, 45.3685066 ] } },
{ "type": "Feature", "properties": { "Name": "Cismea Piata Centrala", "description": null, "xcoord": 24.6743731, "ycoord": 45.1390753 }, "geometry": { "type": "Point", "coordinates": [ 24.6743731, 45.1390753 ] } },
{ "type": "Feature", "properties": { "Name": "Point 196", "description": null, "xcoord": 26.1032981, "ycoord": 44.4430531 }, "geometry": { "type": "Point", "coordinates": [ 26.1032981, 44.4430531 ] } },
{ "type": "Feature", "properties": { "Name": "Punct 197", "description": null, "xcoord": 26.1003479, "ycoord": 44.4003083 }, "geometry": { "type": "Point", "coordinates": [ 26.1003479, 44.4003083 ] } },
{ "type": "Feature", "properties": { "Name": "Punct 198", "description": null, "xcoord": 28.0077688, "ycoord": 45.410639 }, "geometry": { "type": "Point", "coordinates": [ 28.0077688, 45.410639 ] } },
{ "type": "Feature", "properties": { "Name": "Universitatea Națională de Știință și Tehnologie POLITEHNICA București", "description": "<img src=\"https:\/\/mymaps.usercontent.google.com\/hostedimage\/m\/*\/3AL_Y2X5JqzoRqx7W_cCGDZV81OIYm8P8Plf7PtKaqMJEO_7b4t49-naQQW94JE4sekPFcuNr24BUCbyQqwxrgYV_kQ5q_NgdqBo190c03gDHbgfMwbrMNWt-TlVeDAsVoPCHXDAAbt_DZTco9D8j_8iskKYr4bhg-9K7xVoIHbVtrKA4-unj_LJOLo2fRSKH9pF4qwJwJC0-cIkR6YJD5dK58181xxOrx_yrMAxOaWdhtqFAS920F14Hd9xJShY?authuser=0&fife=s16383\" height=\"200\" width=\"auto\" \/><br><br>Statii ApaPotabilă AWL în incinta UPB<br>9 statii apa potabila filtrată si racită (gratuit).<br>Umplere sticla\/pahar şi ţâşnitoare", "xcoord": 26.0494925, "ycoord": 44.4386064 }, "geometry": { "type": "Point", "coordinates": [ 26.0494925, 44.4386064 ] } }
]
}
